[
  {
    "name": "Miss Jutta",
    "location": "Berlin",
    "phone": "0599-1292772",
    "type": "in",
    "imageUrl": "https://randomuser.me/api/portraits/women/73.jpg",
    "date": "2021-07-13T16:55:00"
  }, {
    "name": "Mr Esat",
    "location": "Kocaeli",
    "phone": "(756)-961-5894",
    "type": "in",
    "imageUrl": "https://randomuser.me/api/portraits/men/53.jpg",
    "date": "2021-07-13T12:23:00"
  }, {
    "name": "Ms Leanne",
    "location": "Yukon",
    "phone": "297-214-2079",
    "type": "missed",
    "imageUrl": "",
    "date": "2021-07-12T18:35:00"
  }, {
    "name": "",
    "location": "Canarias",
    "phone": "968-672-369",
    "type": "out",
    "imageUrl": "https://randomuser.me/api/portraits/women/26.jpg",
    "date": "2021-07-12T14:26:00"
  }, {
    "name": "",
    "location": "Connecticut",
    "phone": "(572)-305-6107",
    "type": "out",
    "imageUrl": "",
    "date": "2021-07-10T19:56:00"
  }, {
    "name": "Mr Esat",
    "location": "Çankırı",
    "phone": "(826)-980-6455",
    "type": "in",
    "imageUrl": "https://randomuser.me/api/portraits/men/77.jpg",
    "date": "2021-07-10T14:43:00"
  }, {
    "name": "Mr Byron",
    "location": "Dún Laoghaire–Rathdown",
    "phone": "061-048-2362",
    "type": "missed",
    "imageUrl": "",
    "date": "2021-07-09T12:32:00"
  }, {
    "name": "Miss Sedef",
    "location": "Sivas",
    "phone": "(320)-478-9487",
    "type": "missed",
    "imageUrl": "",
    "date": "2021-07-08T10:44:00"
  }, {
    "name": "Miss Sara",
    "location": "Danmark",
    "phone": "07481657",
    "type": "in",
    "imageUrl": "",
    "date": "2021-07-07T23:16:00"
  }, {
    "name": "Mrs Mariara",
    "location": "Sergipe",
    "phone": "(36) 0389-9584",
    "type": "out",
    "imageUrl": "",
    "date": "2021-07-06T16:43:00"
  }, {
    "name": "Mrs Claire",
    "location": "Somme",
    "phone": "03-47-30-21-89",
    "type": "in",
    "imageUrl": "https://randomuser.me/api/portraits/women/63.jpg",
    "date": "2021-07-07T12:12:00"
  }, {
    "name": "Mr حامد",
    "location": "خراسان شمالی",
    "phone": "027-65572231",
    "type": "out",
    "imageUrl": "",
    "date": "2021-07-05T14:46:00"
  }, {
    "name": "Miss Maya",
    "location": "Sogn og Fjordane",
    "phone": "73333359",
    "type": "out",
    "imageUrl": "",
    "date": "2021-07-05T16:21:00"
  }, {
    "name": "Mr Zackary",
    "location": "Alberta",
    "phone": "144-133-7922",
    "type": "in",
    "imageUrl": "https://randomuser.me/api/portraits/men/33.jpg",
    "date": "2021-07-03T17:05:00"
  }, {
    "name": "Miss Frida",
    "location": "Syddanmark",
    "phone": "26851829",
    "type": "missed",
    "imageUrl": "",
    "date": "2021-07-01T21:41:00"
  }
]